{
"type": "FeatureCollection",
"name": "hawker_clean",
"crs": { "type": "name", "properties": { "name": "urn:ogc:def:crs:OGC:1.3:CRS84" } },
"features": [
{ "type": "Feature", "properties": { "hawker_name": "adam road food centre", "region": "NOVENA", "area": "CENTRAL REGION" }, "geometry": { "type": "Point", "coordinates": [ 103.814165, 1.3241342 ] } },
{ "type": "Feature", "properties": { "hawker_name": "aljunied ave 2 blk 117 (blk 117 aljunied market and food centre)", "region": "GEYLANG", "area": "CENTRAL REGION" }, "geometry": { "type": "Point", "coordinates": [ 103.887019, 1.3206483 ] } },
{ "type": "Feature", "properties": { "hawker_name": "amoy street food centre (telok ayer food centre)", "region": "DOWNTOWN CORE", "area": "CENTRAL REGION" }, "geometry": { "type": "Point", "coordinates": [ 103.846606799999989, 1.2792184 ] } },
{ "type": "Feature", "properties": { "hawker_name": "anchorvale village hawker centre", "region": "SENGKANG", "area": "NORTH-EAST REGION" }, "geometry": { "type": "Point", "coordinates": [ 103.8884896, 1.3969142 ] } },
{ "type": "Feature", "properties": { "hawker_name": "ang mo kio ave 1 blk 226d (kebun baru market and food centre)", "region": "ANG MO KIO", "area": "NORTH-EAST REGION" }, "geometry": { "type": "Point", "coordinates": [ 103.8392313, 1.3667876 ] } },
{ "type": "Feature", "properties": { "hawker_name": "ang mo kio ave 1 blk 341 (teck ghee court)", "region": "ANG MO KIO", "area": "NORTH-EAST REGION" }, "geometry": { "type": "Point", "coordinates": [ 103.8482542, 1.3641052 ] } },
{ "type": "Feature", "properties": { "hawker_name": "ang mo kio ave 10 blk 409 (teck ghee square)", "region": "ANG MO KIO", "area": "NORTH-EAST REGION" }, "geometry": { "type": "Point", "coordinates": [ 103.8553698, 1.3627689 ] } },
{ "type": "Feature", "properties": { "hawker_name": "ang mo kio ave 10 blk 453a (chong boon market and food centre)", "region": "ANG MO KIO", "area": "NORTH-EAST REGION" }, "geometry": { "type": "Point", "coordinates": [ 103.8563514, 1.3682405 ] } },
{ "type": "Feature", "properties": { "hawker_name": "ang mo kio ave 10 blk 527 (cheng san market and cooked food centre)", "region": "ANG MO KIO", "area": "NORTH-EAST REGION" }, "geometry": { "type": "Point", "coordinates": [ 103.8544828, 1.3727699 ] } },
{ "type": "Feature", "properties": { "hawker_name": "ang mo kio ave 4 blk 160/162 (mayflower market)", "region": "ANG MO KIO", "area": "NORTH-EAST REGION" }, "geometry": { "type": "Point", "coordinates": [ 103.8392143, 1.3744891 ] } },
{ "type": "Feature", "properties": { "hawker_name": "ang mo kio ave 4 blk 628 (ang mo kio 628 market)", "region": "ANG MO KIO", "area": "NORTH-EAST REGION" }, "geometry": { "type": "Point", "coordinates": [ 103.8406823, 1.3810249 ] } },
{ "type": "Feature", "properties": { "hawker_name": "ang mo kio ave 6 blk 724 (blk 724 ang mo kio market)", "region": "ANG MO KIO", "area": "NORTH-EAST REGION" }, "geometry": { "type": "Point", "coordinates": [ 103.846519199999989, 1.3721974 ] } },
{ "type": "Feature", "properties": { "hawker_name": "ang mo kio street 22 blk 226h (kebun baru food centre)", "region": "ANG MO KIO", "area": "NORTH-EAST REGION" }, "geometry": { "type": "Point", "coordinates": [ 103.839953200000011, 1.3672301 ] } },
{ "type": "Feature", "properties": { "hawker_name": "bedok food centre", "region": "BEDOK", "area": "EAST REGION" }, "geometry": { "type": "Point", "coordinates": [ 103.9554742, 1.320356 ] } },
{ "type": "Feature", "properties": { "hawker_name": "bedok north street 1 blk 216", "region": "BEDOK", "area": "EAST REGION" }, "geometry": { "type": "Point", "coordinates": [ 103.9332215, 1.3270624 ] } },
{ "type": "Feature", "properties": { "hawker_name": "bedok north street 3 blk 511 (kaki bukit 511 market and food centre)", "region": "BEDOK", "area": "EAST REGION" }, "geometry": { "type": "Point", "coordinates": [ 103.9306021, 1.3332463 ] } },
{ "type": "Feature", "properties": { "hawker_name": "bedok north street 3 blk 538", "region": "BEDOK", "area": "EAST REGION" }, "geometry": { "type": "Point", "coordinates": [ 103.9248442, 1.3317813 ] } },
{ "type": "Feature", "properties": { "hawker_name": "bedok north street 4 blk 85 (85 fengshan centre)", "region": "BEDOK", "area": "EAST REGION" }, "geometry": { "type": "Point", "coordinates": [ 103.9387326, 1.3319871 ] } },
{ "type": "Feature", "properties": { "hawker_name": "bedok reservoir road blk 630", "region": "BEDOK", "area": "EAST REGION" }, "geometry": { "type": "Point", "coordinates": [ 103.9140539, 1.3331592 ] } },
{ "type": "Feature", "properties": { "hawker_name": "bedok south road blk 16", "region": "BEDOK", "area": "EAST REGION" }, "geometry": { "type": "Point", "coordinates": [ 103.9355391, 1.3205522 ] } },
{ "type": "Feature", "properties": { "hawker_name": "bendemeer road blk 29 (bendemeer market and food centre)", "region": "KALLANG", "area": "CENTRAL REGION" }, "geometry": { "type": "Point", "coordinates": [ 103.8630214, 1.319217 ] } },
{ "type": "Feature", "properties": { "hawker_name": "beo crescent market", "region": "BUKIT MERAH", "area": "CENTRAL REGION" }, "geometry": { "type": "Point", "coordinates": [ 103.827358, 1.2888221 ] } },
{ "type": "Feature", "properties": { "hawker_name": "berseh food centre", "region": "ROCHOR", "area": "CENTRAL REGION" }, "geometry": { "type": "Point", "coordinates": [ 103.856854, 1.3073365 ] } },
{ "type": "Feature", "properties": { "hawker_name": "boon lay place blk 221a/b (boon lay place market and food village)", "region": "JURONG WEST", "area": "WEST REGION" }, "geometry": { "type": "Point", "coordinates": [ 103.712799800000013, 1.3452232 ] } },
{ "type": "Feature", "properties": { "hawker_name": "buangkok hawker centre", "region": "SENGKANG", "area": "NORTH-EAST REGION" }, "geometry": { "type": "Point", "coordinates": [ 103.8924032, 1.3823876 ] } },
{ "type": "Feature", "properties": { "hawker_name": "buffalo road blk 665 (tekka centre/zhu jiao market)", "region": "ROCHOR", "area": "CENTRAL REGION" }, "geometry": { "type": "Point", "coordinates": [ 103.850531, 1.3062058 ] } },
{ "type": "Feature", "properties": { "hawker_name": "bukit batok west hawker centre", "region": "BUKIT BATOK", "area": "WEST REGION" }, "geometry": { "type": "Point", "coordinates": [ 103.741825800000015, 1.3552146 ] } },
{ "type": "Feature", "properties": { "hawker_name": "bukit canberra hawker centre", "region": "SEMBAWANG", "area": "NORTH REGION" }, "geometry": { "type": "Point", "coordinates": [ 103.822485, 1.4490167 ] } },
{ "type": "Feature", "properties": { "hawker_name": "bukit merah central blk 163 (bukit merah central food centre)", "region": "BUKIT MERAH", "area": "CENTRAL REGION" }, "geometry": { "type": "Point", "coordinates": [ 103.8169924, 1.2836926 ] } },
{ "type": "Feature", "properties": { "hawker_name": "bukit merah lane 1 blk 120 (alexandra village food centre)", "region": "BUKIT MERAH", "area": "CENTRAL REGION" }, "geometry": { "type": "Point", "coordinates": [ 103.8044893, 1.2862978 ] } },
{ "type": "Feature", "properties": { "hawker_name": "bukit merah view blk 115 (blk 115 bukit merah view market and food centre)", "region": "BUKIT MERAH", "area": "CENTRAL REGION" }, "geometry": { "type": "Point", "coordinates": [ 103.8220494, 1.2855048 ] } },
{ "type": "Feature", "properties": { "hawker_name": "bukit panjang hawker centre", "region": "BUKIT PANJANG", "area": "WEST REGION" }, "geometry": { "type": "Point", "coordinates": [ 103.7724896, 1.3776005 ] } },
{ "type": "Feature", "properties": { "hawker_name": "bukit timah market", "region": "BUKIT TIMAH", "area": "CENTRAL REGION" }, "geometry": { "type": "Point", "coordinates": [ 103.775995, 1.339376 ] } },
{ "type": "Feature", "properties": { "hawker_name": "cambridge road blk 41a (pek kio market and food centre)", "region": "KALLANG", "area": "CENTRAL REGION" }, "geometry": { "type": "Point", "coordinates": [ 103.850225099999989, 1.3161599 ] } },
{ "type": "Feature", "properties": { "hawker_name": "changi village blk 2 and 3", "region": "CHANGI", "area": "EAST REGION" }, "geometry": { "type": "Point", "coordinates": [ 103.9882457, 1.3891517 ] } },
{ "type": "Feature", "properties": { "hawker_name": "chomp chomp food centre", "region": "SERANGOON", "area": "NORTH-EAST REGION" }, "geometry": { "type": "Point", "coordinates": [ 103.8665361, 1.3642285 ] } },
{ "type": "Feature", "properties": { "hawker_name": "ci yuan hawker centre", "region": "HOUGANG", "area": "NORTH-EAST REGION" }, "geometry": { "type": "Point", "coordinates": [ 103.882978, 1.375429 ] } },
{ "type": "Feature", "properties": { "hawker_name": "circuit road blk 79/79a", "region": "GEYLANG", "area": "CENTRAL REGION" }, "geometry": { "type": "Point", "coordinates": [ 103.8850435, 1.3264499 ] } },
{ "type": "Feature", "properties": { "hawker_name": "circuit road blk 80 (80 circuit road market and food centre)", "region": "GEYLANG", "area": "CENTRAL REGION" }, "geometry": { "type": "Point", "coordinates": [ 103.887128499999989, 1.3278496 ] } },
{ "type": "Feature", "properties": { "hawker_name": "circuit road blk 89", "region": "GEYLANG", "area": "CENTRAL REGION" }, "geometry": { "type": "Point", "coordinates": [ 103.885449200000011, 1.3234453 ] } },
{ "type": "Feature", "properties": { "hawker_name": "clementi ave 2 blk 353 (clementi ave 2 market/cooked food centre)", "region": "CLEMENTI", "area": "WEST REGION" }, "geometry": { "type": "Point", "coordinates": [ 103.7708367, 1.3143677 ] } },
{ "type": "Feature", "properties": { "hawker_name": "clementi ave 3 blk 448", "region": "CLEMENTI", "area": "WEST REGION" }, "geometry": { "type": "Point", "coordinates": [ 103.7645105, 1.3132649 ] } },
{ "type": "Feature", "properties": { "hawker_name": "clementi west street 2 blk 726", "region": "CLEMENTI", "area": "WEST REGION" }, "geometry": { "type": "Point", "coordinates": [ 103.7642644, 1.303782 ] } },
{ "type": "Feature", "properties": { "hawker_name": "commonwealth crescent market", "region": "QUEENSTOWN", "area": "CENTRAL REGION" }, "geometry": { "type": "Point", "coordinates": [ 103.8003628, 1.3068923 ] } },
{ "type": "Feature", "properties": { "hawker_name": "commonwealth drive blk 1a/2a/3a (tanglin halt food centre/commonwealth drive food centre)", "region": "QUEENSTOWN", "area": "CENTRAL REGION" }, "geometry": { "type": "Point", "coordinates": [ 103.797875499999989, 1.2997133 ] } },
{ "type": "Feature", "properties": { "hawker_name": "dunman food centre", "region": "MARINE PARADE", "area": "CENTRAL REGION" }, "geometry": { "type": "Point", "coordinates": [ 103.9018251, 1.3094142 ] } },
{ "type": "Feature", "properties": { "hawker_name": "east coast lagoon food village", "region": "BEDOK", "area": "EAST REGION" }, "geometry": { "type": "Point", "coordinates": [ 103.9350167, 1.3066843 ] } },
{ "type": "Feature", "properties": { "hawker_name": "empress road blk 7 (empress road market and food centre)", "region": "BUKIT TIMAH", "area": "CENTRAL REGION" }, "geometry": { "type": "Point", "coordinates": [ 103.8056364, 1.3162457 ] } },
{ "type": "Feature", "properties": { "hawker_name": "eunos crescent blk 4a", "region": "GEYLANG", "area": "CENTRAL REGION" }, "geometry": { "type": "Point", "coordinates": [ 103.9042609, 1.3203318 ] } },
{ "type": "Feature", "properties": { "hawker_name": "fernvale hawker centre & market", "region": "SENGKANG", "area": "NORTH-EAST REGION" }, "geometry": { "type": "Point", "coordinates": [ 103.877060500000013, 1.3915923 ] } },
{ "type": "Feature", "properties": { "hawker_name": "geylang bahru blk 69 (blk 69 geylang bahru market and food centre)", "region": "KALLANG", "area": "CENTRAL REGION" }, "geometry": { "type": "Point", "coordinates": [ 103.8700044, 1.3214623 ] } },
{ "type": "Feature", "properties": { "hawker_name": "geylang serai market", "region": "GEYLANG", "area": "CENTRAL REGION" }, "geometry": { "type": "Point", "coordinates": [ 103.8982243, 1.3167281 ] } },
{ "type": "Feature", "properties": { "hawker_name": "ghim moh road blk 20", "region": "QUEENSTOWN", "area": "CENTRAL REGION" }, "geometry": { "type": "Point", "coordinates": [ 103.7882307, 1.3109963 ] } },
{ "type": "Feature", "properties": { "hawker_name": "golden mile food centre", "region": "KALLANG", "area": "CENTRAL REGION" }, "geometry": { "type": "Point", "coordinates": [ 103.863883199999989, 1.3028755 ] } },
{ "type": "Feature", "properties": { "hawker_name": "haig road blk 13/14 (haig road market and cooked food centre)", "region": "GEYLANG", "area": "CENTRAL REGION" }, "geometry": { "type": "Point", "coordinates": [ 103.8956095, 1.3151421 ] } },
{ "type": "Feature", "properties": { "hawker_name": "havelock road blk 22a/b (havelock road cooked food centre)", "region": "BUKIT MERAH", "area": "CENTRAL REGION" }, "geometry": { "type": "Point", "coordinates": [ 103.8296268, 1.2879754 ] } },
{ "type": "Feature", "properties": { "hawker_name": "hawker centre @ our tampines hub", "region": "TAMPINES", "area": "EAST REGION" }, "geometry": { "type": "Point", "coordinates": [ 103.9397262, 1.3538621 ] } },
{ "type": "Feature", "properties": { "hawker_name": "holland drive blk 44 (holland drive market and food centre)", "region": "QUEENSTOWN", "area": "CENTRAL REGION" }, "geometry": { "type": "Point", "coordinates": [ 103.7927738, 1.3081178 ] } },
{ "type": "Feature", "properties": { "hawker_name": "holland village market and food centre", "region": "QUEENSTOWN", "area": "CENTRAL REGION" }, "geometry": { "type": "Point", "coordinates": [ 103.7948629, 1.310908 ] } },
{ "type": "Feature", "properties": { "hawker_name": "hougang ave 1 blk 105 (hougang 105 hainanese village centre)", "region": "HOUGANG", "area": "NORTH-EAST REGION" }, "geometry": { "type": "Point", "coordinates": [ 103.890081099999989, 1.3538374 ] } },
{ "type": "Feature", "properties": { "hawker_name": "hougang street 21 blk 209 (kovan hougang market and food centre)", "region": "HOUGANG", "area": "NORTH-EAST REGION" }, "geometry": { "type": "Point", "coordinates": [ 103.8859776, 1.3591194 ] } },
{ "type": "Feature", "properties": { "hawker_name": "jalan batu blk 4a (blk 4a jalan batu hawker centre/market)", "region": "KALLANG", "area": "CENTRAL REGION" }, "geometry": { "type": "Point", "coordinates": [ 103.883940599999988, 1.3024188 ] } },
{ "type": "Feature", "properties": { "hawker_name": "jalan bukit merah blk 112 (blk 112 jalan bukit merah market and food centre)", "region": "BUKIT MERAH", "area": "CENTRAL REGION" }, "geometry": { "type": "Point", "coordinates": [ 103.8260133, 1.2800048 ] } },
{ "type": "Feature", "properties": { "hawker_name": "jalan bukit merah blk 6 (abc brickworks market/food centre)", "region": "BUKIT MERAH", "area": "CENTRAL REGION" }, "geometry": { "type": "Point", "coordinates": [ 103.808128, 1.2869528 ] } },
{ "type": "Feature", "properties": { "hawker_name": "jalan kukoh blk 1 (kukoh 21 food centre)", "region": "OUTRAM", "area": "CENTRAL REGION" }, "geometry": { "type": "Point", "coordinates": [ 103.839945899999989, 1.2882306 ] } },
{ "type": "Feature", "properties": { "hawker_name": "jurong east ave 1 blk 347 (yuhua market and hawker centre)", "region": "JURONG EAST", "area": "WEST REGION" }, "geometry": { "type": "Point", "coordinates": [ 103.731579700000012, 1.3453125 ] } },
{ "type": "Feature", "properties": { "hawker_name": "jurong east street 24 blk 254 (yuhua village market and food centre)", "region": "JURONG EAST", "area": "WEST REGION" }, "geometry": { "type": "Point", "coordinates": [ 103.7377812, 1.3434421 ] } },
{ "type": "Feature", "properties": { "hawker_name": "jurong west hawker centre", "region": "JURONG WEST", "area": "WEST REGION" }, "geometry": { "type": "Point", "coordinates": [ 103.6974043, 1.3412597 ] } },
{ "type": "Feature", "properties": { "hawker_name": "jurong west street 52 blk 505", "region": "JURONG WEST", "area": "WEST REGION" }, "geometry": { "type": "Point", "coordinates": [ 103.7184475, 1.3496422 ] } },
{ "type": "Feature", "properties": { "hawker_name": "kallang estate fresh market and food centre", "region": "GEYLANG", "area": "CENTRAL REGION" }, "geometry": { "type": "Point", "coordinates": [ 103.8841302, 1.3073962 ] } },
{ "type": "Feature", "properties": { "hawker_name": "kampung admiralty hawker centre", "region": "WOODLANDS", "area": "NORTH REGION" }, "geometry": { "type": "Point", "coordinates": [ 103.8006964, 1.4399328 ] } },
{ "type": "Feature", "properties": { "hawker_name": "margaret drive hawker centre", "region": "QUEENSTOWN", "area": "CENTRAL REGION" }, "geometry": { "type": "Point", "coordinates": [ 103.8047152, 1.2974857 ] } },
{ "type": "Feature", "properties": { "hawker_name": "marine parade central blk 84 (84 marine parade central market and food centre)", "region": "MARINE PARADE", "area": "CENTRAL REGION" }, "geometry": { "type": "Point", "coordinates": [ 103.9063385, 1.3022851 ] } },
{ "type": "Feature", "properties": { "hawker_name": "marine terrace blk 50a (50a marine terrace)", "region": "MARINE PARADE", "area": "CENTRAL REGION" }, "geometry": { "type": "Point", "coordinates": [ 103.915762, 1.3057751 ] } },
{ "type": "Feature", "properties": { "hawker_name": "market street hawker centre", "region": "DOWNTOWN CORE", "area": "CENTRAL REGION" }, "geometry": { "type": "Point", "coordinates": [ 103.8501646, 1.2844249 ] } },
{ "type": "Feature", "properties": { "hawker_name": "marsiling lane blk 20/21", "region": "WOODLANDS", "area": "NORTH REGION" }, "geometry": { "type": "Point", "coordinates": [ 103.777203199999988, 1.4438818 ] } },
{ "type": "Feature", "properties": { "hawker_name": "marsiling mall hawker centre", "region": "WOODLANDS", "area": "NORTH REGION" }, "geometry": { "type": "Point", "coordinates": [ 103.7797849, 1.4335389 ] } },
{ "type": "Feature", "properties": { "hawker_name": "maxwell food centre (kim hua market)", "region": "DOWNTOWN CORE", "area": "CENTRAL REGION" }, "geometry": { "type": "Point", "coordinates": [ 103.8448279, 1.2801122 ] } },
{ "type": "Feature", "properties": { "hawker_name": "mei chin road blk 159 (mei chin road market)", "region": "QUEENSTOWN", "area": "CENTRAL REGION" }, "geometry": { "type": "Point", "coordinates": [ 103.8029039, 1.2932362 ] } },
{ "type": "Feature", "properties": { "hawker_name": "new market road blk 32 (people's park food centre)", "region": "OUTRAM", "area": "CENTRAL REGION" }, "geometry": { "type": "Point", "coordinates": [ 103.8425788, 1.284991 ] } },
{ "type": "Feature", "properties": { "hawker_name": "new upper changi road blk 208b", "region": "BEDOK", "area": "EAST REGION" }, "geometry": { "type": "Point", "coordinates": [ 103.9305605, 1.3247388 ] } },
{ "type": "Feature", "properties": { "hawker_name": "new upper changi road blk 58", "region": "BEDOK", "area": "EAST REGION" }, "geometry": { "type": "Point", "coordinates": [ 103.9411324, 1.3241878 ] } },
{ "type": "Feature", "properties": { "hawker_name": "newton food centre", "region": "NEWTON", "area": "CENTRAL REGION" }, "geometry": { "type": "Point", "coordinates": [ 103.8395627, 1.3118924 ] } },
{ "type": "Feature", "properties": { "hawker_name": "north bridge road market", "region": "KALLANG", "area": "CENTRAL REGION" }, "geometry": { "type": "Point", "coordinates": [ 103.863891, 1.3057654 ] } },
{ "type": "Feature", "properties": { "hawker_name": "old airport road blk 51 (51 old airport road food centre and shopping mall)", "region": "GEYLANG", "area": "CENTRAL REGION" }, "geometry": { "type": "Point", "coordinates": [ 103.8858332, 1.3082516 ] } },
{ "type": "Feature", "properties": { "hawker_name": "one punggol hawker centre", "region": "PUNGGOL", "area": "NORTH-EAST REGION" }, "geometry": { "type": "Point", "coordinates": [ 103.9048057, 1.40819 ] } },
{ "type": "Feature", "properties": { "hawker_name": "pasir panjang food centre", "region": "QUEENSTOWN", "area": "CENTRAL REGION" }, "geometry": { "type": "Point", "coordinates": [ 103.7914027, 1.2759075 ] } },
{ "type": "Feature", "properties": { "hawker_name": "pasir ris central hawker centre", "region": "PASIR RIS", "area": "EAST REGION" }, "geometry": { "type": "Point", "coordinates": [ 103.951543, 1.3734341 ] } },
{ "type": "Feature", "properties": { "hawker_name": "punggol digital district hawker centre", "region": "PUNGGOL", "area": "NORTH-EAST REGION" }, "geometry": { "type": "Point", "coordinates": [ 103.9082528, 1.4145669 ] } },
{ "type": "Feature", "properties": { "hawker_name": "queen street blk 270 (albert centre)", "region": "ROCHOR", "area": "CENTRAL REGION" }, "geometry": { "type": "Point", "coordinates": [ 103.8542116, 1.3010015 ] } },
{ "type": "Feature", "properties": { "hawker_name": "redhill lane blk 79 (redhill market)", "region": "BUKIT MERAH", "area": "CENTRAL REGION" }, "geometry": { "type": "Point", "coordinates": [ 103.8184026, 1.2878581 ] } },
{ "type": "Feature", "properties": { "hawker_name": "redhill lane blk 85 (redhill food centre)", "region": "BUKIT MERAH", "area": "CENTRAL REGION" }, "geometry": { "type": "Point", "coordinates": [ 103.8183389, 1.2873308 ] } },
{ "type": "Feature", "properties": { "hawker_name": "sembawang hills food centre (jalan leban food centre)", "region": "ANG MO KIO", "area": "NORTH-EAST REGION" }, "geometry": { "type": "Point", "coordinates": [ 103.828994200000011, 1.3723849 ] } },
{ "type": "Feature", "properties": { "hawker_name": "senja hawker centre", "region": "BUKIT PANJANG", "area": "WEST REGION" }, "geometry": { "type": "Point", "coordinates": [ 103.7610178, 1.3871357 ] } },
{ "type": "Feature", "properties": { "hawker_name": "serangoon garden market", "region": "SERANGOON", "area": "NORTH-EAST REGION" }, "geometry": { "type": "Point", "coordinates": [ 103.8667375, 1.3631571 ] } },
{ "type": "Feature", "properties": { "hawker_name": "shunfu road blk 320 (shunfu mart)", "region": "BISHAN", "area": "CENTRAL REGION" }, "geometry": { "type": "Point", "coordinates": [ 103.8370318, 1.3520074 ] } },
{ "type": "Feature", "properties": { "hawker_name": "sims place blk 49 (sims vista market and food centre)", "region": "GEYLANG", "area": "CENTRAL REGION" }, "geometry": { "type": "Point", "coordinates": [ 103.879417, 1.3170834 ] } },
{ "type": "Feature", "properties": { "hawker_name": "smith street blk 335 (chinatown complex market)", "region": "OUTRAM", "area": "CENTRAL REGION" }, "geometry": { "type": "Point", "coordinates": [ 103.8431776, 1.2822351 ] } },
{ "type": "Feature", "properties": { "hawker_name": "taman jurong market and food centre", "region": "JURONG WEST", "area": "WEST REGION" }, "geometry": { "type": "Point", "coordinates": [ 103.7215199, 1.3345894 ] } },
{ "type": "Feature", "properties": { "hawker_name": "tampines street 11 blk 137 (tampines round market and food centre)", "region": "TAMPINES", "area": "EAST REGION" }, "geometry": { "type": "Point", "coordinates": [ 103.944624499999989, 1.3456395 ] } },
{ "type": "Feature", "properties": { "hawker_name": "tanglin halt market", "region": "QUEENSTOWN", "area": "CENTRAL REGION" }, "geometry": { "type": "Point", "coordinates": [ 103.7976258, 1.3007893 ] } },
{ "type": "Feature", "properties": { "hawker_name": "tanjong pagar plaza blk 6 (blk 6 tanjong pagar plaza market and food centre)", "region": "OUTRAM", "area": "CENTRAL REGION" }, "geometry": { "type": "Point", "coordinates": [ 103.843167, 1.2766146 ] } },
{ "type": "Feature", "properties": { "hawker_name": "teban gardens road blk 37a (teban gardens market and food centre)", "region": "JURONG EAST", "area": "WEST REGION" }, "geometry": { "type": "Point", "coordinates": [ 103.7428916, 1.3208484 ] } },
{ "type": "Feature", "properties": { "hawker_name": "telok blangah crescent blk 11 (11 telok blangah crescent market and food centre)", "region": "BUKIT MERAH", "area": "CENTRAL REGION" }, "geometry": { "type": "Point", "coordinates": [ 103.8186417, 1.2773668 ] } },
{ "type": "Feature", "properties": { "hawker_name": "telok blangah drive blk 79 (telok blangah food centre)", "region": "BUKIT MERAH", "area": "CENTRAL REGION" }, "geometry": { "type": "Point", "coordinates": [ 103.8076268, 1.2733683 ] } },
{ "type": "Feature", "properties": { "hawker_name": "telok blangah drive blk 82 (telok blangah market)", "region": "BUKIT MERAH", "area": "CENTRAL REGION" }, "geometry": { "type": "Point", "coordinates": [ 103.8079436, 1.2739138 ] } },
{ "type": "Feature", "properties": { "hawker_name": "telok blangah hawker centre & market", "region": "BUKIT MERAH", "area": "CENTRAL REGION" }, "geometry": { "type": "Point", "coordinates": [ 103.8080787, 1.2732486 ] } },
{ "type": "Feature", "properties": { "hawker_name": "telok blangah rise blk 36 (telok blangah rise market)", "region": "BUKIT MERAH", "area": "CENTRAL REGION" }, "geometry": { "type": "Point", "coordinates": [ 103.8221173, 1.2727158 ] } },
{ "type": "Feature", "properties": { "hawker_name": "tiong bahru market", "region": "BUKIT MERAH", "area": "CENTRAL REGION" }, "geometry": { "type": "Point", "coordinates": [ 103.8323488, 1.2850883 ] } },
{ "type": "Feature", "properties": { "hawker_name": "toa payoh lorong 1 blk 127 (toa payoh west market and food court)", "region": "TOA PAYOH", "area": "CENTRAL REGION" }, "geometry": { "type": "Point", "coordinates": [ 103.844731599999989, 1.3380927 ] } },
{ "type": "Feature", "properties": { "hawker_name": "toa payoh lorong 4 blk 74 (toa payoh vista market)", "region": "TOA PAYOH", "area": "CENTRAL REGION" }, "geometry": { "type": "Point", "coordinates": [ 103.8519991, 1.3345482 ] } },
{ "type": "Feature", "properties": { "hawker_name": "toa payoh lorong 4 blk 93", "region": "TOA PAYOH", "area": "CENTRAL REGION" }, "geometry": { "type": "Point", "coordinates": [ 103.8495135, 1.3384748 ] } },
{ "type": "Feature", "properties": { "hawker_name": "toa payoh lorong 5 blk 75", "region": "TOA PAYOH", "area": "CENTRAL REGION" }, "geometry": { "type": "Point", "coordinates": [ 103.8529416, 1.3360388 ] } },
{ "type": "Feature", "properties": { "hawker_name": "toa payoh lorong 7 blk 22 (kim keat palm market and food centre)", "region": "TOA PAYOH", "area": "CENTRAL REGION" }, "geometry": { "type": "Point", "coordinates": [ 103.857036, 1.3352315 ] } },
{ "type": "Feature", "properties": { "hawker_name": "toa payoh lorong 8 blk 210", "region": "TOA PAYOH", "area": "CENTRAL REGION" }, "geometry": { "type": "Point", "coordinates": [ 103.8543953, 1.3402608 ] } },
{ "type": "Feature", "properties": { "hawker_name": "upper boon keng road blk 17 (blk 17 upper boon keng market and food centre)", "region": "KALLANG", "area": "CENTRAL REGION" }, "geometry": { "type": "Point", "coordinates": [ 103.871620299999989, 1.315028 ] } },
{ "type": "Feature", "properties": { "hawker_name": "upper cross street blk 531a (hong lim food centre and market)", "region": "OUTRAM", "area": "CENTRAL REGION" }, "geometry": { "type": "Point", "coordinates": [ 103.8458189, 1.2852464 ] } },
{ "type": "Feature", "properties": { "hawker_name": "west coast drive blk 502 (ayer rajah market)", "region": "CLEMENTI", "area": "WEST REGION" }, "geometry": { "type": "Point", "coordinates": [ 103.7591661, 1.3118897 ] } },
{ "type": "Feature", "properties": { "hawker_name": "west coast drive blk 503 (ayer rajah food centre)", "region": "CLEMENTI", "area": "WEST REGION" }, "geometry": { "type": "Point", "coordinates": [ 103.7597513, 1.311803 ] } },
{ "type": "Feature", "properties": { "hawker_name": "whampoa drive blk 90 (whampoa drive makan place/whampoa food centre)", "region": "NOVENA", "area": "CENTRAL REGION" }, "geometry": { "type": "Point", "coordinates": [ 103.855137700000014, 1.3229431 ] } },
{ "type": "Feature", "properties": { "hawker_name": "whampoa drive blk 91/92 (whampoa drive makan place/whampoa market)", "region": "NOVENA", "area": "CENTRAL REGION" }, "geometry": { "type": "Point", "coordinates": [ 103.8540681, 1.3234218 ] } },
{ "type": "Feature", "properties": { "hawker_name": "woodleigh village hawker centre", "region": "TOA PAYOH", "area": "CENTRAL REGION" }, "geometry": { "type": "Point", "coordinates": [ 103.8720902, 1.3397961 ] } },
{ "type": "Feature", "properties": { "hawker_name": "yishun park hawker centre", "region": "YISHUN", "area": "NORTH REGION" }, "geometry": { "type": "Point", "coordinates": [ 103.8447476, 1.4250176 ] } },
{ "type": "Feature", "properties": { "hawker_name": "yishun ring road blk 104/105 (chong pang market and food centre)", "region": "YISHUN", "area": "NORTH REGION" }, "geometry": { "type": "Point", "coordinates": [ 103.8285376, 1.4314477 ] } },
{ "type": "Feature", "properties": { "hawker_name": "zion riverside food centre", "region": "TANGLIN", "area": "CENTRAL REGION" }, "geometry": { "type": "Point", "coordinates": [ 103.8311893, 1.2923422 ] } }
]
}
